[
  {
    "name": "konya",
    "coord": {
      "lon":32.493156,
      "lat":37.874641
    }
  },
    {
    "name": "ankara",
    "coord": {
      "lon":32.859741,
      "lat":39.933365
    }
  },
    {
    "name": "istanbul",
    "coord": {
      "lon":28.978359,
      "lat":41.008240
    }
  },
   {
    "name": "izmir",
    "coord": {
      "lon":27.142826,
      "lat":38.423733
    }
  },
    {
    "name": "adana",
    "coord": {
      "lon":35.330830,
      "lat":36.991421
    }
  },
    {
    "name": "yozgat",
    "coord": {
      "lon":34.807838,
      "lat":39.823730
    }
  }
]